{"type":"FeatureCollection","features":[{"geometry":{"type":"Point","coordinates":[10.112903,53.684277]},"type":"Feature","properties":{"category":"patisserie","hours":"10am - 6pm","description":"Gönnerstraße 3, 22305 Stadt","name":"REWE Markt Müller & Sohn","storeid":"01"}},{"geometry":{"type":"Point","coordinates":[8.704907,53.539695]},"type":"Feature","properties":{"category":"patisserie","hours":"10am - 6pm","description":"Gönnerstraße 3, 22305 Stadt","name":"REWE Markt Dieter Brahms","storeid":"02"}},{"geometry":{"type":"Point","coordinates":[9.7019,52.413752]},"type":"Feature","properties":{"category":"patisserie","hours":"10am - 6pm","description":"Gönnerstraße 3, 22305 Stadt","name":"REWE Zentrum Innenstadt","storeid":"03"}},{"geometry":{"type":"Point","coordinates":[10.889199,52.393644]},"type":"Feature","properties":{"category":"patisserie","hours":"10am - 6pm","description":"Gönnerstraße 3, 22305 Stadt","name":"Kaufland Familie Schwarz","storeid":"04"}},{"geometry":{"type":"Point","coordinates":[6.685369,50.993989]},"type":"Feature","properties":{"category":"patisserie","hours":"10am - 6pm","description":"Gönnerstraße 3, 22305 Stadt","name":"REWE Marktstraße","phone":"+44 151 444 4444","storeid":"05"}},{"geometry":{"type":"Point","coordinates":[8.682944,50.078326]},"type":"Feature","properties":{"category":"patisserie","hours":"10am - 6pm","description":"Gönnerstraße 3, 22305 Stadt","name":"REWE Hauptstadt","phone":"+44 5555 55555","storeid":"06"}},{"geometry":{"type":"Point","coordinates":[10.837672,48.676486]},"type":"Feature","properties":{"category":"patisserie","hours":"10am - 6pm","description":"Gönnerstraße 3, 22305 Stadt","name":"Kaufland Siemersstr. 3","phone":"+44 29 6666 6666","storeid":"07"}},{"geometry":{"type":"Point","coordinates":[11.704173,47.995778]},"type":"Feature","properties":{"category":"cafe","hours":"8am - 9:30pm","description":"Gönnerstraße 3, 22305 Stadt","name":"Kaufland Innenstadt","phone":"+44 7777 777777","storeid":"08"}},{"geometry":{"type":"Point","coordinates":[12.485669,51.299646]},"type":"Feature","properties":{"category":"cafe","hours":"8am - 9:30pm","description":"Gönnerstraße 3, 22305 Stadt","name":"REWE Markt Neckermann","phone":"+44 8888 88888","storeid":"09"}},{"geometry":{"type":"Point","coordinates":[13.392353,52.517637]},"type":"Feature","properties":{"category":"cafe","hours":"8am - 9:30pm","description":"Gönnerstraße 3, 22305 Stadt","name":"REWE Markt Maurer","phone":"+44 1010 101010","storeid":"10"}},{"geometry":{"type":"Point","coordinates":[10.714142,53.896922]},"type":"Feature","properties":{"category":"cafe","hours":"8am - 9:30pm","description":"Gönnerstraße 3, 22305 Stadt","name":"REWE Zentrum Hbf","phone":"+44 1313 131313","storeid":"11"}},{"geometry":{"type":"Point","coordinates":[9.665711,54.241933]},"type":"Feature","properties":{"category":"cafe","hours":"8am - 9:30pm","description":"Gönnerstraße 3, 22305 Stadt","name":"REWE Markt Nr 5","phone":"+44 1414 141414","storeid":"12"}},{"geometry":{"type":"Point","coordinates":[11.474352,53.67007]},"type":"Feature","properties":{"category":"cafe","hours":"8am - 9:30pm","description":"Gönnerstraße 3, 22305 Stadt","name":"Kaufland Innsbruck","phone":"+44 1717 17171","storeid":"13"}}]}